{
  "metadata": {
    "generatedAt": "2026-01-15T17:39:37.475Z",
    "queryCount": 10
  },
  "results": {
    "overview": [
      {
        "total_trips": 4397438,
        "unique_stations": 628,
        "earliest_trip": "2025-01-01T03:25:24.269Z",
        "latest_trip": "2026-01-01T07:56:04.455Z",
        "avg_duration_seconds": 797,
        "avg_duration_minutes": 13,
        "total_hours": 973791,
        "member_trips": 3448915,
        "casual_trips": 948523,
        "electric_trips": 3468310,
        "classic_trips": 929128,
        "round_trips": 117416
      }
    ],
    "stations": [
      {
        "station_id": "SF-J29",
        "name": "San Francisco Caltrain Station - Townsend St",
        "latitude": 37.7766,
        "longitude": -122.39528,
        "total_trips": 99467,
        "member_trips": 80364,
        "casual_trips": 19103,
        "round_trips": 463
      },
      {
        "station_id": "SF-E29-2",
        "name": "Market St at Steuart St",
        "latitude": 37.794525,
        "longitude": -122.39488,
        "total_trips": 87389,
        "member_trips": 69465,
        "casual_trips": 17924,
        "round_trips": 714
      },
      {
        "station_id": "SF-G27",
        "name": "Powell St BART North",
        "latitude": 37.786137,
        "longitude": -122.405235,
        "total_trips": 76218,
        "member_trips": 62268,
        "casual_trips": 13950,
        "round_trips": 888
      },
      {
        "station_id": "SF-J23-1",
        "name": "Market St at 10th St",
        "latitude": 37.77662,
        "longitude": -122.41738,
        "total_trips": 69656,
        "member_trips": 60486,
        "casual_trips": 9170,
        "round_trips": 537
      },
      {
        "station_id": "SF-P30",
        "name": "22nd St Caltrain Station",
        "latitude": 37.757706,
        "longitude": -122.391884,
        "total_trips": 59002,
        "member_trips": 50402,
        "casual_trips": 8600,
        "round_trips": 482
      },
      {
        "station_id": "SF-E29-1",
        "name": "San Francisco Ferry Building",
        "latitude": 37.79539,
        "longitude": -122.3942,
        "total_trips": 57861,
        "member_trips": 39121,
        "casual_trips": 18740,
        "round_trips": 728
      },
      {
        "station_id": "SF-J18",
        "name": "Grove St at Divisadero",
        "latitude": 37.775948,
        "longitude": -122.437775,
        "total_trips": 57854,
        "member_trips": 46970,
        "casual_trips": 10884,
        "round_trips": 503
      },
      {
        "station_id": "SF-N22-2",
        "name": "17th St at Valencia St",
        "latitude": 37.763332,
        "longitude": -122.42206,
        "total_trips": 56791,
        "member_trips": 46558,
        "casual_trips": 10233,
        "round_trips": 320
      },
      {
        "station_id": "SF-K19",
        "name": "Page St at Scott St",
        "latitude": 37.772354,
        "longitude": -122.43586,
        "total_trips": 55993,
        "member_trips": 44768,
        "casual_trips": 11225,
        "round_trips": 578
      },
      {
        "station_id": "SF-K20",
        "name": "Pierce St at Haight St",
        "latitude": 37.771793,
        "longitude": -122.43371,
        "total_trips": 54517,
        "member_trips": 44713,
        "casual_trips": 9804,
        "round_trips": 533
      },
      {
        "station_id": "SF-A22",
        "name": "North Point St at Polk St",
        "latitude": 37.805443,
        "longitude": -122.42313,
        "total_trips": 53595,
        "member_trips": 34379,
        "casual_trips": 19216,
        "round_trips": 1083
      },
      {
        "station_id": "SF-H26",
        "name": "Powell St BART South",
        "latitude": 37.7839,
        "longitude": -122.40845,
        "total_trips": 53082,
        "member_trips": 42020,
        "casual_trips": 11062,
        "round_trips": 592
      },
      {
        "station_id": "SF-L15",
        "name": "Waller St at Shrader St",
        "latitude": 37.768383,
        "longitude": -122.451965,
        "total_trips": 53074,
        "member_trips": 38145,
        "casual_trips": 14929,
        "round_trips": 1069
      },
      {
        "station_id": "SF-G29-1",
        "name": "Salesforce Transit Center",
        "latitude": 37.78749,
        "longitude": -122.398285,
        "total_trips": 52586,
        "member_trips": 45160,
        "casual_trips": 7426,
        "round_trips": 348
      },
      {
        "station_id": "SF-F28-3",
        "name": "Sansome St at Sutter St",
        "latitude": 37.790546,
        "longitude": -122.400604,
        "total_trips": 51770,
        "member_trips": 44695,
        "casual_trips": 7075,
        "round_trips": 348
      },
      {
        "station_id": "SF-M20",
        "name": "Sanchez St at 15th St",
        "latitude": 37.76622,
        "longitude": -122.43106,
        "total_trips": 51642,
        "member_trips": 43598,
        "casual_trips": 8044,
        "round_trips": 467
      },
      {
        "station_id": "SF-GGP-03",
        "name": "8th Ave at JFK Dr",
        "latitude": 37.772907,
        "longitude": -122.465935,
        "total_trips": 48958,
        "member_trips": 23947,
        "casual_trips": 25011,
        "round_trips": 3113
      },
      {
        "station_id": "SF-L21",
        "name": "Market St at Dolores St",
        "latitude": 37.769245,
        "longitude": -122.42696,
        "total_trips": 48187,
        "member_trips": 42139,
        "casual_trips": 6048,
        "round_trips": 271
      },
      {
        "station_id": "SF-K16",
        "name": "Page St at Masonic Ave",
        "latitude": 37.771133,
        "longitude": -122.44534,
        "total_trips": 48089,
        "member_trips": 37604,
        "casual_trips": 10485,
        "round_trips": 621
      },
      {
        "station_id": "SF-I30",
        "name": "2nd St at Townsend St",
        "latitude": 37.780525,
        "longitude": -122.39029,
        "total_trips": 46845,
        "member_trips": 36501,
        "casual_trips": 10344,
        "round_trips": 370
      },
      {
        "station_id": "SF-J21",
        "name": "Laguna St at Hayes St",
        "latitude": 37.77625,
        "longitude": -122.4262,
        "total_trips": 46291,
        "member_trips": 38602,
        "casual_trips": 7689,
        "round_trips": 374
      },
      {
        "station_id": "SF-O30-2",
        "name": "Illinois St at 20th St",
        "latitude": 37.76034,
        "longitude": -122.38745,
        "total_trips": 46273,
        "member_trips": 38353,
        "casual_trips": 7920,
        "round_trips": 457
      },
      {
        "station_id": "SF-O22",
        "name": "Mission Playground",
        "latitude": 37.759018,
        "longitude": -122.421455,
        "total_trips": 46174,
        "member_trips": 38548,
        "casual_trips": 7626,
        "round_trips": 372
      },
      {
        "station_id": "SF-M30-4",
        "name": "4th St at Gene Friend Way",
        "latitude": 37.76887,
        "longitude": -122.391106,
        "total_trips": 45614,
        "member_trips": 40467,
        "casual_trips": 5147,
        "round_trips": 247
      },
      {
        "station_id": "SF-K29-1",
        "name": "Berry St at 4th St",
        "latitude": 37.775993,
        "longitude": -122.393005,
        "total_trips": 45332,
        "member_trips": 39362,
        "casual_trips": 5970,
        "round_trips": 376
      },
      {
        "station_id": "SF-J24",
        "name": "8th St at Ringold St",
        "latitude": 37.77452,
        "longitude": -122.40945,
        "total_trips": 44667,
        "member_trips": 38256,
        "casual_trips": 6411,
        "round_trips": 296
      },
      {
        "station_id": "SF-E23",
        "name": "Jackson St at Polk St",
        "latitude": 37.79416,
        "longitude": -122.42157,
        "total_trips": 43947,
        "member_trips": 35904,
        "casual_trips": 8043,
        "round_trips": 348
      },
      {
        "station_id": "SF-J23-2",
        "name": "S Van Ness Ave at Market St",
        "latitude": 37.774815,
        "longitude": -122.41895,
        "total_trips": 43365,
        "member_trips": 38390,
        "casual_trips": 4975,
        "round_trips": 279
      },
      {
        "station_id": "SF-K30-3",
        "name": "4th St at Long Bridge St",
        "latitude": 37.773754,
        "longitude": -122.391426,
        "total_trips": 43352,
        "member_trips": 36589,
        "casual_trips": 6763,
        "round_trips": 339
      },
      {
        "station_id": "SF-F29",
        "name": "Howard St at Beale St",
        "latitude": 37.790295,
        "longitude": -122.393875,
        "total_trips": 43291,
        "member_trips": 38044,
        "casual_trips": 5247,
        "round_trips": 270
      },
      {
        "station_id": "SF-I24",
        "name": "San Francisco Public Library",
        "latitude": 37.778797,
        "longitude": -122.41596,
        "total_trips": 42393,
        "member_trips": 35328,
        "casual_trips": 7065,
        "round_trips": 267
      },
      {
        "station_id": "SF-C25",
        "name": "Powell St at Columbus Ave",
        "latitude": 37.800495,
        "longitude": -122.41089,
        "total_trips": 41732,
        "member_trips": 31760,
        "casual_trips": 9972,
        "round_trips": 649
      },
      {
        "station_id": "SF-A20",
        "name": "Buchanan St at North Point St",
        "latitude": 37.80444,
        "longitude": -122.43359,
        "total_trips": 41431,
        "member_trips": 29680,
        "casual_trips": 11751,
        "round_trips": 940
      },
      {
        "station_id": "SF-H29",
        "name": "2nd St at Folsom St",
        "latitude": 37.7852,
        "longitude": -122.39622,
        "total_trips": 41004,
        "member_trips": 34550,
        "casual_trips": 6454,
        "round_trips": 350
      },
      {
        "station_id": "SF-J22-2",
        "name": "Grove St at Gough St",
        "latitude": 37.77787,
        "longitude": -122.42295,
        "total_trips": 40849,
        "member_trips": 34764,
        "casual_trips": 6085,
        "round_trips": 238
      },
      {
        "station_id": "SF-N28",
        "name": "Jackson Playground",
        "latitude": 37.765057,
        "longitude": -122.398994,
        "total_trips": 40652,
        "member_trips": 34948,
        "casual_trips": 5704,
        "round_trips": 365
      },
      {
        "station_id": "SF-O21",
        "name": "Mission Dolores Park",
        "latitude": 37.761383,
        "longitude": -122.42647,
        "total_trips": 40308,
        "member_trips": 32282,
        "casual_trips": 8026,
        "round_trips": 319
      },
      {
        "station_id": "SF-F23-2",
        "name": "Polk St at Bush St",
        "latitude": 37.78848,
        "longitude": -122.420334,
        "total_trips": 40135,
        "member_trips": 33349,
        "casual_trips": 6786,
        "round_trips": 346
      },
      {
        "station_id": "SF-N27",
        "name": "Rhode Island St at 17th St",
        "latitude": 37.764477,
        "longitude": -122.40257,
        "total_trips": 40048,
        "member_trips": 35509,
        "casual_trips": 4539,
        "round_trips": 231
      },
      {
        "station_id": "SF-F28-1",
        "name": "Mechanics Monument Plaza",
        "latitude": 37.7913,
        "longitude": -122.39905,
        "total_trips": 39985,
        "member_trips": 33420,
        "casual_trips": 6565,
        "round_trips": 259
      },
      {
        "station_id": "SF-G29-2",
        "name": "Folsom St at 1st St",
        "latitude": 37.78711,
        "longitude": -122.39485,
        "total_trips": 39286,
        "member_trips": 34340,
        "casual_trips": 4946,
        "round_trips": 299
      },
      {
        "station_id": "SF-GGP-01",
        "name": "Pompei Circle at JFK Dr",
        "latitude": 37.7717,
        "longitude": -122.45828,
        "total_trips": 39254,
        "member_trips": 20090,
        "casual_trips": 19164,
        "round_trips": 2612
      },
      {
        "station_id": "SF-K21",
        "name": "Koshland Park",
        "latitude": 37.77344,
        "longitude": -122.427155,
        "total_trips": 39096,
        "member_trips": 33863,
        "casual_trips": 5233,
        "round_trips": 341
      },
      {
        "station_id": "SF-I21",
        "name": "Fulton St at Laguna St",
        "latitude": 37.77842,
        "longitude": -122.426285,
        "total_trips": 39079,
        "member_trips": 34044,
        "casual_trips": 5035,
        "round_trips": 304
      },
      {
        "station_id": "SF-I25",
        "name": "Civic Center BART",
        "latitude": 37.781075,
        "longitude": -122.411736,
        "total_trips": 39066,
        "member_trips": 31187,
        "casual_trips": 7879,
        "round_trips": 439
      },
      {
        "station_id": "SF-F26",
        "name": "Union Square",
        "latitude": 37.7883,
        "longitude": -122.40853,
        "total_trips": 38889,
        "member_trips": 29590,
        "casual_trips": 9299,
        "round_trips": 472
      },
      {
        "station_id": "SF-D29",
        "name": "Pier 1/2 at The Embarcadero",
        "latitude": 37.79639,
        "longitude": -122.394585,
        "total_trips": 38817,
        "member_trips": 25662,
        "casual_trips": 13155,
        "round_trips": 694
      },
      {
        "station_id": "SF-F27",
        "name": "Post St at Kearny St",
        "latitude": 37.788975,
        "longitude": -122.40345,
        "total_trips": 38642,
        "member_trips": 32446,
        "casual_trips": 6196,
        "round_trips": 284
      },
      {
        "station_id": "SF-J22-1",
        "name": "Octavia Blvd at Page St",
        "latitude": 37.774017,
        "longitude": -122.423805,
        "total_trips": 38403,
        "member_trips": 33326,
        "casual_trips": 5077,
        "round_trips": 328
      },
      {
        "station_id": "SF-G20",
        "name": "Post St at Webster St",
        "latitude": 37.78539,
        "longitude": -122.43177,
        "total_trips": 37825,
        "member_trips": 29636,
        "casual_trips": 8189,
        "round_trips": 344
      },
      {
        "station_id": "SF-B28-2",
        "name": "Battery St at Filbert St",
        "latitude": 37.801945,
        "longitude": -122.40177,
        "total_trips": 37717,
        "member_trips": 32389,
        "casual_trips": 5328,
        "round_trips": 232
      },
      {
        "station_id": "SF-M30-2",
        "name": "Terry Francois Blvd at Warriors Way",
        "latitude": 37.769096,
        "longitude": -122.38633,
        "total_trips": 37063,
        "member_trips": 28368,
        "casual_trips": 8695,
        "round_trips": 448
      },
      {
        "station_id": "SF-L26",
        "name": "Division St at Potrero Ave",
        "latitude": 37.769264,
        "longitude": -122.40705,
        "total_trips": 36740,
        "member_trips": 33763,
        "casual_trips": 2977,
        "round_trips": 110
      },
      {
        "station_id": "SF-Q22-2",
        "name": "Valencia St at 24th St",
        "latitude": 37.752426,
        "longitude": -122.42063,
        "total_trips": 36636,
        "member_trips": 30410,
        "casual_trips": 6226,
        "round_trips": 231
      },
      {
        "station_id": "SF-A27",
        "name": "The Embarcadero at Sansome St",
        "latitude": 37.80477,
        "longitude": -122.40324,
        "total_trips": 36455,
        "member_trips": 28771,
        "casual_trips": 7684,
        "round_trips": 309
      },
      {
        "station_id": "SF-K15-2",
        "name": "Fell St at Clayton St",
        "latitude": 37.77256,
        "longitude": -122.448906,
        "total_trips": 36428,
        "member_trips": 27052,
        "casual_trips": 9376,
        "round_trips": 679
      },
      {
        "station_id": "SF-F30-1",
        "name": "The Embarcadero at Steuart St",
        "latitude": 37.7914,
        "longitude": -122.39104,
        "total_trips": 36215,
        "member_trips": 29655,
        "casual_trips": 6560,
        "round_trips": 237
      },
      {
        "station_id": "SF-K18",
        "name": "Broderick St at Oak St",
        "latitude": 37.773064,
        "longitude": -122.43908,
        "total_trips": 36052,
        "member_trips": 28476,
        "casual_trips": 7576,
        "round_trips": 382
      },
      {
        "station_id": "SF-L20",
        "name": "Church St at Duboce Ave",
        "latitude": 37.769817,
        "longitude": -122.429146,
        "total_trips": 35853,
        "member_trips": 29925,
        "casual_trips": 5928,
        "round_trips": 264
      },
      {
        "station_id": "SF-J30",
        "name": "3rd St at King St",
        "latitude": 37.7779,
        "longitude": -122.39141,
        "total_trips": 35727,
        "member_trips": 27849,
        "casual_trips": 7878,
        "round_trips": 322
      },
      {
        "station_id": "SF-M30",
        "name": "4th St at 16th St",
        "latitude": 37.767185,
        "longitude": -122.39104,
        "total_trips": 35619,
        "member_trips": 29759,
        "casual_trips": 5860,
        "round_trips": 212
      },
      {
        "station_id": "SF-O30",
        "name": "Esprit Park",
        "latitude": 37.761635,
        "longitude": -122.39065,
        "total_trips": 35370,
        "member_trips": 30306,
        "casual_trips": 5064,
        "round_trips": 371
      },
      {
        "station_id": "SF-C22",
        "name": "Green St at Van Ness Ave",
        "latitude": 37.797626,
        "longitude": -122.42354,
        "total_trips": 34848,
        "member_trips": 27942,
        "casual_trips": 6906,
        "round_trips": 366
      },
      {
        "station_id": "SF-N20-1",
        "name": "16th St at Prosper St",
        "latitude": 37.764286,
        "longitude": -122.4318,
        "total_trips": 34765,
        "member_trips": 30633,
        "casual_trips": 4132,
        "round_trips": 262
      },
      {
        "station_id": "SF-GGP-05",
        "name": "JFK Dr at Great Highway",
        "latitude": 37.770477,
        "longitude": -122.5106,
        "total_trips": 34617,
        "member_trips": 12878,
        "casual_trips": 21739,
        "round_trips": 1650
      },
      {
        "station_id": "SF-N24-2",
        "name": "Harrison St at 17th St",
        "latitude": 37.763847,
        "longitude": -122.413,
        "total_trips": 34386,
        "member_trips": 30694,
        "casual_trips": 3692,
        "round_trips": 157
      },
      {
        "station_id": "SF-A25",
        "name": "North Point St at Powell St",
        "latitude": 37.80693,
        "longitude": -122.41154,
        "total_trips": 34292,
        "member_trips": 20624,
        "casual_trips": 13668,
        "round_trips": 704
      },
      {
        "station_id": "SF-O25-1",
        "name": "19th St at Florida St",
        "latitude": 37.76045,
        "longitude": -122.410805,
        "total_trips": 34092,
        "member_trips": 29794,
        "casual_trips": 4298,
        "round_trips": 376
      },
      {
        "station_id": "SF-E29-3",
        "name": "Mission St at Beale St",
        "latitude": 37.791252,
        "longitude": -122.39563,
        "total_trips": 33785,
        "member_trips": 29141,
        "casual_trips": 4644,
        "round_trips": 182
      },
      {
        "station_id": "SF-M22-2",
        "name": "15th St at Valencia St",
        "latitude": 37.7666,
        "longitude": -122.42186,
        "total_trips": 33720,
        "member_trips": 28307,
        "casual_trips": 5413,
        "round_trips": 199
      },
      {
        "station_id": "SF-J25",
        "name": "Howard St at 8th St",
        "latitude": 37.776512,
        "longitude": -122.41131,
        "total_trips": 33637,
        "member_trips": 29005,
        "casual_trips": 4632,
        "round_trips": 439
      },
      {
        "station_id": "SF-Q23-3",
        "name": "24th St BART",
        "latitude": 37.75199,
        "longitude": -122.41898,
        "total_trips": 33578,
        "member_trips": 27978,
        "casual_trips": 5600,
        "round_trips": 195
      },
      {
        "station_id": "SF-F30-3",
        "name": "Folsom St at Main St",
        "latitude": 37.789074,
        "longitude": -122.39218,
        "total_trips": 33576,
        "member_trips": 29052,
        "casual_trips": 4524,
        "round_trips": 220
      },
      {
        "station_id": "SF-P22",
        "name": "21st St at Valencia St",
        "latitude": 37.75688,
        "longitude": -122.420906,
        "total_trips": 33523,
        "member_trips": 27269,
        "casual_trips": 6254,
        "round_trips": 228
      },
      {
        "station_id": "SF-O23",
        "name": "19th St at Mission St",
        "latitude": 37.760277,
        "longitude": -122.419075,
        "total_trips": 33450,
        "member_trips": 28332,
        "casual_trips": 5118,
        "round_trips": 293
      },
      {
        "station_id": "SF-J17",
        "name": "McAllister St at Baker St",
        "latitude": 37.777386,
        "longitude": -122.441956,
        "total_trips": 33366,
        "member_trips": 26887,
        "casual_trips": 6479,
        "round_trips": 377
      },
      {
        "station_id": "SF-K26",
        "name": "8th St at Brannan St",
        "latitude": 37.77143,
        "longitude": -122.405785,
        "total_trips": 33181,
        "member_trips": 29301,
        "casual_trips": 3880,
        "round_trips": 148
      },
      {
        "station_id": "SF-C20-2",
        "name": "Webster St at Union St",
        "latitude": 37.79744,
        "longitude": -122.43399,
        "total_trips": 33082,
        "member_trips": 26286,
        "casual_trips": 6796,
        "round_trips": 411
      },
      {
        "station_id": "SF-F28-2",
        "name": "Montgomery St BART",
        "latitude": 37.78962,
        "longitude": -122.40081,
        "total_trips": 32969,
        "member_trips": 27984,
        "casual_trips": 4985,
        "round_trips": 216
      },
      {
        "station_id": "SF-Q22-1",
        "name": "22nd St at Valencia St",
        "latitude": 37.75528,
        "longitude": -122.421135,
        "total_trips": 32960,
        "member_trips": 27251,
        "casual_trips": 5709,
        "round_trips": 222
      },
      {
        "station_id": "SF-J29-4",
        "name": "San Francisco Caltrain Station - 4th St",
        "latitude": 37.776455,
        "longitude": -122.39438,
        "total_trips": 32834,
        "member_trips": 27120,
        "casual_trips": 5714,
        "round_trips": 245
      },
      {
        "station_id": "SF-J19",
        "name": "Alamo Square",
        "latitude": 37.777546,
        "longitude": -122.43327,
        "total_trips": 32518,
        "member_trips": 25438,
        "casual_trips": 7080,
        "round_trips": 387
      },
      {
        "station_id": "SF-C26-1",
        "name": "Broadway at Kearny St",
        "latitude": 37.79801,
        "longitude": -122.40595,
        "total_trips": 32394,
        "member_trips": 25598,
        "casual_trips": 6796,
        "round_trips": 330
      },
      {
        "station_id": "SF-L22",
        "name": "Valencia St at Clinton Park",
        "latitude": 37.76901,
        "longitude": -122.42225,
        "total_trips": 32246,
        "member_trips": 27301,
        "casual_trips": 4945,
        "round_trips": 217
      },
      {
        "station_id": "SF-E28",
        "name": "Clay St at Battery St",
        "latitude": 37.795002,
        "longitude": -122.39997,
        "total_trips": 32229,
        "member_trips": 26865,
        "casual_trips": 5364,
        "round_trips": 309
      },
      {
        "station_id": "SF-F23-3",
        "name": "Larkin St at California St",
        "latitude": 37.79059,
        "longitude": -122.41893,
        "total_trips": 32079,
        "member_trips": 26414,
        "casual_trips": 5665,
        "round_trips": 355
      },
      {
        "station_id": "SF-K17",
        "name": "Lyon St at Fell St",
        "latitude": 37.773563,
        "longitude": -122.44257,
        "total_trips": 32038,
        "member_trips": 24609,
        "casual_trips": 7429,
        "round_trips": 560
      },
      {
        "station_id": "SF-A25-2",
        "name": "Mason St at Bay St",
        "latitude": 37.805454,
        "longitude": -122.413666,
        "total_trips": 31978,
        "member_trips": 23868,
        "casual_trips": 8110,
        "round_trips": 420
      },
      {
        "station_id": "SF-L30-1",
        "name": "4th St at Mission Bay Blvd S",
        "latitude": 37.770313,
        "longitude": -122.391235,
        "total_trips": 31137,
        "member_trips": 26840,
        "casual_trips": 4297,
        "round_trips": 144
      },
      {
        "station_id": "SF-G19",
        "name": "Raymond Kimbell Playground",
        "latitude": 37.783813,
        "longitude": -122.434555,
        "total_trips": 30623,
        "member_trips": 26257,
        "casual_trips": 4366,
        "round_trips": 204
      },
      {
        "station_id": "SF-G29-3",
        "name": "Tehama St at 1st St",
        "latitude": 37.788033,
        "longitude": -122.39562,
        "total_trips": 30404,
        "member_trips": 25785,
        "casual_trips": 4619,
        "round_trips": 218
      },
      {
        "station_id": "SF-K22-1",
        "name": "Market St at Franklin St",
        "latitude": 37.773792,
        "longitude": -122.42124,
        "total_trips": 30299,
        "member_trips": 26158,
        "casual_trips": 4141,
        "round_trips": 196
      },
      {
        "station_id": "SF-K27-2",
        "name": "Brannan St at 7th St",
        "latitude": 37.772438,
        "longitude": -122.40392,
        "total_trips": 30145,
        "member_trips": 26101,
        "casual_trips": 4044,
        "round_trips": 362
      },
      {
        "station_id": "SF-D28",
        "name": "Davis St at Jackson St",
        "latitude": 37.79728,
        "longitude": -122.39844,
        "total_trips": 29803,
        "member_trips": 25688,
        "casual_trips": 4115,
        "round_trips": 326
      },
      {
        "station_id": "SF-N30",
        "name": "Hospital St at Mariposa St",
        "latitude": 37.764782,
        "longitude": -122.3909,
        "total_trips": 29655,
        "member_trips": 25430,
        "casual_trips": 4225,
        "round_trips": 222
      },
      {
        "station_id": "SF-C18",
        "name": "Divisadero St at Lombard St",
        "latitude": 37.799175,
        "longitude": -122.442726,
        "total_trips": 29228,
        "member_trips": 20657,
        "casual_trips": 8571,
        "round_trips": 493
      },
      {
        "station_id": "SF-O24",
        "name": "Folsom St at 19th St",
        "latitude": 37.760593,
        "longitude": -122.41482,
        "total_trips": 29219,
        "member_trips": 25423,
        "casual_trips": 3796,
        "round_trips": 114
      },
      {
        "station_id": "SF-J26",
        "name": "Victoria Manalo Draves Park",
        "latitude": 37.777695,
        "longitude": -122.4063,
        "total_trips": 29061,
        "member_trips": 24886,
        "casual_trips": 4175,
        "round_trips": 244
      },
      {
        "station_id": "SF-F23",
        "name": "Polk St at Post St",
        "latitude": 37.787003,
        "longitude": -122.42005,
        "total_trips": 29038,
        "member_trips": 23824,
        "casual_trips": 5214,
        "round_trips": 220
      },
      {
        "station_id": "SF-N29",
        "name": "Mississippi St at 17th St",
        "latitude": 37.764793,
        "longitude": -122.39476,
        "total_trips": 29024,
        "member_trips": 24854,
        "casual_trips": 4170,
        "round_trips": 165
      },
      {
        "station_id": "SF-P24",
        "name": "Harrison St at 20th St",
        "latitude": 37.75886,
        "longitude": -122.412544,
        "total_trips": 28712,
        "member_trips": 24564,
        "casual_trips": 4148,
        "round_trips": 156
      },
      {
        "station_id": "SF-O19",
        "name": "18th St at Noe St",
        "latitude": 37.761047,
        "longitude": -122.43264,
        "total_trips": 28492,
        "member_trips": 23296,
        "casual_trips": 5196,
        "round_trips": 202
      },
      {
        "station_id": "SF-L25",
        "name": "11th St at Bryant St",
        "latitude": 37.77003,
        "longitude": -122.41173,
        "total_trips": 28251,
        "member_trips": 24633,
        "casual_trips": 3618,
        "round_trips": 129
      },
      {
        "station_id": "SF-R24",
        "name": "Garfield Square",
        "latitude": 37.750946,
        "longitude": -122.41209,
        "total_trips": 28161,
        "member_trips": 23676,
        "casual_trips": 4485,
        "round_trips": 267
      },
      {
        "station_id": "SF-M15",
        "name": "Carl St at Cole St",
        "latitude": 37.76594,
        "longitude": -122.44923,
        "total_trips": 28134,
        "member_trips": 21363,
        "casual_trips": 6771,
        "round_trips": 390
      },
      {
        "station_id": "SF-O25-2",
        "name": "20th St at Bryant St",
        "latitude": 37.759163,
        "longitude": -122.41005,
        "total_trips": 28012,
        "member_trips": 23894,
        "casual_trips": 4118,
        "round_trips": 216
      },
      {
        "station_id": "SF-B22",
        "name": "Chestnut St at Van Ness Ave",
        "latitude": 37.802307,
        "longitude": -122.4245,
        "total_trips": 27822,
        "member_trips": 21408,
        "casual_trips": 6414,
        "round_trips": 355
      },
      {
        "station_id": "SF-F26-2",
        "name": "Grant Ave at Sutter St",
        "latitude": 37.78971,
        "longitude": -122.40549,
        "total_trips": 27679,
        "member_trips": 22178,
        "casual_trips": 5501,
        "round_trips": 319
      },
      {
        "station_id": "SF-D27",
        "name": "Washington St at Kearny St",
        "latitude": 37.795403,
        "longitude": -122.404686,
        "total_trips": 27522,
        "member_trips": 21566,
        "casual_trips": 5956,
        "round_trips": 472
      },
      {
        "station_id": "SF-B19",
        "name": "Bay St at Fillmore St",
        "latitude": 37.80266,
        "longitude": -122.436066,
        "total_trips": 27236,
        "member_trips": 20613,
        "casual_trips": 6623,
        "round_trips": 414
      },
      {
        "station_id": "SF-G28-1",
        "name": "Howard St at 2nd St",
        "latitude": 37.786465,
        "longitude": -122.39872,
        "total_trips": 27208,
        "member_trips": 20417,
        "casual_trips": 6791,
        "round_trips": 159
      },
      {
        "station_id": "SF-N21",
        "name": "17th St at Dolores St",
        "latitude": 37.763016,
        "longitude": -122.4265,
        "total_trips": 26952,
        "member_trips": 22873,
        "casual_trips": 4079,
        "round_trips": 220
      },
      {
        "station_id": "SF-N22-1B",
        "name": "16th St Mission BART North",
        "latitude": 37.76484,
        "longitude": -122.42014,
        "total_trips": 26881,
        "member_trips": 22788,
        "casual_trips": 4093,
        "round_trips": 177
      },
      {
        "station_id": "SF-F30-2",
        "name": "Spear St at Folsom St",
        "latitude": 37.78963,
        "longitude": -122.390335,
        "total_trips": 26879,
        "member_trips": 23142,
        "casual_trips": 3737,
        "round_trips": 237
      },
      {
        "station_id": "SF-I28",
        "name": "4th St at Harrison St",
        "latitude": 37.781544,
        "longitude": -122.40041,
        "total_trips": 26848,
        "member_trips": 23719,
        "casual_trips": 3129,
        "round_trips": 199
      },
      {
        "station_id": "SF-J28-2",
        "name": "Brannan St at 4th St",
        "latitude": 37.777935,
        "longitude": -122.39697,
        "total_trips": 26653,
        "member_trips": 23279,
        "casual_trips": 3374,
        "round_trips": 159
      },
      {
        "station_id": "SF-A26",
        "name": "North Point St at Grant Ave",
        "latitude": 37.80717,
        "longitude": -122.40928,
        "total_trips": 26507,
        "member_trips": 15334,
        "casual_trips": 11173,
        "round_trips": 309
      },
      {
        "station_id": "SF-Q30",
        "name": "23rd St at Tennessee St",
        "latitude": 37.755367,
        "longitude": -122.388794,
        "total_trips": 26024,
        "member_trips": 22418,
        "casual_trips": 3606,
        "round_trips": 312
      },
      {
        "station_id": "SF-M21",
        "name": "Dolores St at 15th St",
        "latitude": 37.7661,
        "longitude": -122.42666,
        "total_trips": 25970,
        "member_trips": 22524,
        "casual_trips": 3446,
        "round_trips": 334
      },
      {
        "station_id": "SF-M13",
        "name": "Frederick St at Arguello Blvd",
        "latitude": 37.76578,
        "longitude": -122.457634,
        "total_trips": 25942,
        "member_trips": 21340,
        "casual_trips": 4602,
        "round_trips": 495
      },
      {
        "station_id": "SF-L27",
        "name": "Townsend St at 7th St",
        "latitude": 37.77107,
        "longitude": -122.40276,
        "total_trips": 25897,
        "member_trips": 22224,
        "casual_trips": 3673,
        "round_trips": 154
      },
      {
        "station_id": "SF-G30-1",
        "name": "Beale St at Harrison St",
        "latitude": 37.787964,
        "longitude": -122.39181,
        "total_trips": 25808,
        "member_trips": 22832,
        "casual_trips": 2976,
        "round_trips": 165
      },
      {
        "station_id": "SF-E27",
        "name": "Commercial St at Montgomery St",
        "latitude": 37.794247,
        "longitude": -122.402855,
        "total_trips": 25781,
        "member_trips": 21459,
        "casual_trips": 4322,
        "round_trips": 274
      },
      {
        "station_id": "SF-N25",
        "name": "Franklin Square",
        "latitude": 37.76454,
        "longitude": -122.41035,
        "total_trips": 25725,
        "member_trips": 22240,
        "casual_trips": 3485,
        "round_trips": 137
      },
      {
        "station_id": "SF-I29-2",
        "name": "South Park St at 3rd St",
        "latitude": 37.78076,
        "longitude": -122.39499,
        "total_trips": 25656,
        "member_trips": 22280,
        "casual_trips": 3376,
        "round_trips": 243
      },
      {
        "station_id": "SF-N23",
        "name": "In Chan Kaajal Park",
        "latitude": 37.763733,
        "longitude": -122.41553,
        "total_trips": 25147,
        "member_trips": 21821,
        "casual_trips": 3326,
        "round_trips": 173
      },
      {
        "station_id": "SF-I23-2",
        "name": "San Francisco City Hall",
        "latitude": 37.778786,
        "longitude": -122.41814,
        "total_trips": 24822,
        "member_trips": 20491,
        "casual_trips": 4331,
        "round_trips": 202
      },
      {
        "station_id": "SF-I23-1",
        "name": "Golden Gate Ave at Polk St",
        "latitude": 37.78136,
        "longitude": -122.41853,
        "total_trips": 24819,
        "member_trips": 20778,
        "casual_trips": 4041,
        "round_trips": 180
      },
      {
        "station_id": "SF-K15-",
        "name": "Fell St at Stanyan St",
        "latitude": 37.77195,
        "longitude": -122.453705,
        "total_trips": 24793,
        "member_trips": 15335,
        "casual_trips": 9458,
        "round_trips": 682
      },
      {
        "station_id": "SF-I30-3",
        "name": "South Park St at 2nd St",
        "latitude": 37.782356,
        "longitude": -122.39313,
        "total_trips": 24731,
        "member_trips": 21069,
        "casual_trips": 3662,
        "round_trips": 174
      },
      {
        "station_id": "SF-C21",
        "name": "Allyne Park",
        "latitude": 37.79725,
        "longitude": -122.42746,
        "total_trips": 24536,
        "member_trips": 20261,
        "casual_trips": 4275,
        "round_trips": 295
      },
      {
        "station_id": "SF-L19",
        "name": "Duboce Park",
        "latitude": 37.76905,
        "longitude": -122.43362,
        "total_trips": 24443,
        "member_trips": 20039,
        "casual_trips": 4404,
        "round_trips": 271
      },
      {
        "station_id": "SF-A11",
        "name": "West Crissy Field",
        "latitude": 37.803825,
        "longitude": -122.46771,
        "total_trips": 24416,
        "member_trips": 10959,
        "casual_trips": 13457,
        "round_trips": 1808
      },
      {
        "station_id": "SF-K17-2",
        "name": "Haight St at Lyon St",
        "latitude": 37.77052,
        "longitude": -122.44233,
        "total_trips": 24218,
        "member_trips": 19253,
        "casual_trips": 4965,
        "round_trips": 311
      },
      {
        "station_id": "SF-K22-2",
        "name": "McCoppin St at Valencia St",
        "latitude": 37.77168,
        "longitude": -122.4223,
        "total_trips": 23804,
        "member_trips": 20290,
        "casual_trips": 3514,
        "round_trips": 210
      },
      {
        "station_id": "SF-E20",
        "name": "Webster St at Clay St",
        "latitude": 37.790802,
        "longitude": -122.43259,
        "total_trips": 23231,
        "member_trips": 19277,
        "casual_trips": 3954,
        "round_trips": 251
      },
      {
        "station_id": "SF-L29",
        "name": "Mission Bay Kids Park",
        "latitude": 37.7723,
        "longitude": -122.39303,
        "total_trips": 23043,
        "member_trips": 19931,
        "casual_trips": 3112,
        "round_trips": 271
      },
      {
        "station_id": "SF-H27-1",
        "name": "Yerba Buena Center for the Arts",
        "latitude": 37.784874,
        "longitude": -122.40088,
        "total_trips": 22971,
        "member_trips": 18449,
        "casual_trips": 4522,
        "round_trips": 223
      },
      {
        "station_id": "SF-F19",
        "name": "Steiner St at California St",
        "latitude": 37.78857,
        "longitude": -122.4354,
        "total_trips": 22958,
        "member_trips": 19035,
        "casual_trips": 3923,
        "round_trips": 219
      },
      {
        "station_id": "SF-B25",
        "name": "Lombard St at Columbus Ave",
        "latitude": 37.80277,
        "longitude": -122.41328,
        "total_trips": 22500,
        "member_trips": 17688,
        "casual_trips": 4812,
        "round_trips": 368
      },
      {
        "station_id": "SF-D24",
        "name": "Leavenworth St at Broadway",
        "latitude": 37.79647,
        "longitude": -122.416855,
        "total_trips": 22493,
        "member_trips": 18471,
        "casual_trips": 4022,
        "round_trips": 207
      },
      {
        "station_id": "OK-F4",
        "name": "MacArthur BART",
        "latitude": 37.828594,
        "longitude": -122.26635,
        "total_trips": 22433,
        "member_trips": 16780,
        "casual_trips": 5653,
        "round_trips": 144
      },
      {
        "station_id": "SF-L31-1",
        "name": "Terry Francois Blvd at Mission Bay Blvd N",
        "latitude": 37.771767,
        "longitude": -122.38669,
        "total_trips": 22379,
        "member_trips": 18059,
        "casual_trips": 4320,
        "round_trips": 267
      },
      {
        "station_id": "SF-G25",
        "name": "Jones St at Post St",
        "latitude": 37.787327,
        "longitude": -122.41328,
        "total_trips": 22342,
        "member_trips": 17958,
        "casual_trips": 4384,
        "round_trips": 329
      },
      {
        "station_id": "SF-J20",
        "name": "Webster St at Grove St",
        "latitude": 37.777054,
        "longitude": -122.42956,
        "total_trips": 22215,
        "member_trips": 18469,
        "casual_trips": 3746,
        "round_trips": 197
      },
      {
        "station_id": "SF-C20",
        "name": "Greenwich St at Webster St",
        "latitude": 37.79921,
        "longitude": -122.43412,
        "total_trips": 21947,
        "member_trips": 16312,
        "casual_trips": 5635,
        "round_trips": 337
      },
      {
        "station_id": "SF-H30-2",
        "name": "Delancey St at Brannan St",
        "latitude": 37.783844,
        "longitude": -122.39016,
        "total_trips": 21748,
        "member_trips": 18836,
        "casual_trips": 2912,
        "round_trips": 193
      },
      {
        "station_id": "SF-O18",
        "name": "Eureka Valley Recreation Center",
        "latitude": 37.759212,
        "longitude": -122.4368,
        "total_trips": 21736,
        "member_trips": 17784,
        "casual_trips": 3952,
        "round_trips": 255
      },
      {
        "station_id": "SF-G24",
        "name": "Hyde St at Post St",
        "latitude": 37.787094,
        "longitude": -122.4167,
        "total_trips": 21730,
        "member_trips": 17543,
        "casual_trips": 4187,
        "round_trips": 291
      },
      {
        "station_id": "SF-Q24",
        "name": "Parque Ninos Unidos",
        "latitude": 37.754337,
        "longitude": -122.413246,
        "total_trips": 21380,
        "member_trips": 17898,
        "casual_trips": 3482,
        "round_trips": 157
      },
      {
        "station_id": "SF-J16",
        "name": "Grove St at Masonic Ave",
        "latitude": 37.77487,
        "longitude": -122.44657,
        "total_trips": 21140,
        "member_trips": 16726,
        "casual_trips": 4414,
        "round_trips": 298
      },
      {
        "station_id": "BK-E9-1",
        "name": "Bancroft Way at Telegraph Ave",
        "latitude": 37.86891,
        "longitude": -122.25879,
        "total_trips": 20856,
        "member_trips": 16509,
        "casual_trips": 4347,
        "round_trips": 515
      },
      {
        "station_id": "SF-A19",
        "name": "Fillmore St at Jefferson St",
        "latitude": 37.805374,
        "longitude": -122.43726,
        "total_trips": 20747,
        "member_trips": 13943,
        "casual_trips": 6804,
        "round_trips": 671
      },
      {
        "station_id": "SF-K23",
        "name": "Otis St at Brady St",
        "latitude": 37.77222,
        "longitude": -122.419975,
        "total_trips": 20502,
        "member_trips": 18295,
        "casual_trips": 2207,
        "round_trips": 181
      },
      {
        "station_id": "SF-K24",
        "name": "11th St at Natoma St",
        "latitude": 37.773506,
        "longitude": -122.41604,
        "total_trips": 20377,
        "member_trips": 17184,
        "casual_trips": 3193,
        "round_trips": 137
      },
      {
        "station_id": "BK-D7-1",
        "name": "Downtown Berkeley BART",
        "latitude": 37.87014,
        "longitude": -122.268425,
        "total_trips": 20319,
        "member_trips": 15842,
        "casual_trips": 4477,
        "round_trips": 260
      },
      {
        "station_id": "SF-B21",
        "name": "Greenwich St at Franklin St",
        "latitude": 37.800285,
        "longitude": -122.42579,
        "total_trips": 20307,
        "member_trips": 16232,
        "casual_trips": 4075,
        "round_trips": 303
      },
      {
        "station_id": "SF-C16-2",
        "name": "Lyon St at Lombard St",
        "latitude": 37.7982,
        "longitude": -122.44742,
        "total_trips": 20300,
        "member_trips": 13278,
        "casual_trips": 7022,
        "round_trips": 584
      },
      {
        "station_id": "SF-G12",
        "name": "7th Ave at Clement St",
        "latitude": 37.78244,
        "longitude": -122.46538,
        "total_trips": 20197,
        "member_trips": 14619,
        "casual_trips": 5578,
        "round_trips": 271
      },
      {
        "station_id": "SF-E28-2",
        "name": "Front St at California St",
        "latitude": 37.793095,
        "longitude": -122.398834,
        "total_trips": 20135,
        "member_trips": 17274,
        "casual_trips": 2861,
        "round_trips": 131
      },
      {
        "station_id": "SF-M1",
        "name": "La Playa St at Lincoln Way",
        "latitude": 37.763874,
        "longitude": -122.50953,
        "total_trips": 19962,
        "member_trips": 8317,
        "casual_trips": 11645,
        "round_trips": 1108
      },
      {
        "station_id": "SF-M11",
        "name": "10th Ave at Irving St",
        "latitude": 37.764225,
        "longitude": -122.46738,
        "total_trips": 19916,
        "member_trips": 14022,
        "casual_trips": 5894,
        "round_trips": 352
      },
      {
        "station_id": "BK-D10",
        "name": "Bancroft Way at College Ave",
        "latitude": 37.869396,
        "longitude": -122.25433,
        "total_trips": 19771,
        "member_trips": 15944,
        "casual_trips": 3827,
        "round_trips": 360
      },
      {
        "station_id": "SF-I19",
        "name": "Scott St at Golden Gate Ave",
        "latitude": 37.779114,
        "longitude": -122.43686,
        "total_trips": 19756,
        "member_trips": 16533,
        "casual_trips": 3223,
        "round_trips": 200
      },
      {
        "station_id": "SF-G13",
        "name": "Arguello Blvd at Geary Blvd",
        "latitude": 37.781467,
        "longitude": -122.45881,
        "total_trips": 19649,
        "member_trips": 14437,
        "casual_trips": 5212,
        "round_trips": 257
      },
      {
        "station_id": "SF I29-1",
        "name": "Bryant St at 2nd St",
        "latitude": 37.783176,
        "longitude": -122.39338,
        "total_trips": 19611,
        "member_trips": 16070,
        "casual_trips": 3541,
        "round_trips": 116
      },
      {
        "station_id": "SF-S22-1",
        "name": "Valencia St at Duncan St",
        "latitude": 37.74691,
        "longitude": -122.4201,
        "total_trips": 19410,
        "member_trips": 15924,
        "casual_trips": 3486,
        "round_trips": 127
      },
      {
        "station_id": "SF-A15",
        "name": "Mason St at Halleck St",
        "latitude": 37.803967,
        "longitude": -122.45508,
        "total_trips": 19348,
        "member_trips": 7738,
        "casual_trips": 11610,
        "round_trips": 1090
      },
      {
        "station_id": "SF-E29-4",
        "name": "Drumm St at Market St",
        "latitude": 37.79353,
        "longitude": -122.39647,
        "total_trips": 19335,
        "member_trips": 15098,
        "casual_trips": 4237,
        "round_trips": 178
      },
      {
        "station_id": "SF-G26",
        "name": "Cyril Magnin St at Ellis St",
        "latitude": 37.785877,
        "longitude": -122.40892,
        "total_trips": 19276,
        "member_trips": 14226,
        "casual_trips": 5050,
        "round_trips": 267
      },
      {
        "station_id": "SF-E22",
        "name": "Washington St at Van Ness Ave",
        "latitude": 37.79298,
        "longitude": -122.4233,
        "total_trips": 19183,
        "member_trips": 16008,
        "casual_trips": 3175,
        "round_trips": 166
      },
      {
        "station_id": "SF-M26-2",
        "name": "Alameda St at Henry Adams St",
        "latitude": 37.768543,
        "longitude": -122.404236,
        "total_trips": 19096,
        "member_trips": 16869,
        "casual_trips": 2227,
        "round_trips": 229
      },
      {
        "station_id": "SF-T22",
        "name": "29th St at Tiffany Ave",
        "latitude": 37.744026,
        "longitude": -122.42236,
        "total_trips": 19025,
        "member_trips": 16297,
        "casual_trips": 2728,
        "round_trips": 120
      },
      {
        "station_id": "SF-I30-2",
        "name": "Brannan St at Colin P Kelly Jr St",
        "latitude": 37.782093,
        "longitude": -122.39163,
        "total_trips": 18992,
        "member_trips": 15983,
        "casual_trips": 3009,
        "round_trips": 112
      },
      {
        "station_id": "SF-M22-1",
        "name": "14th St at Mission St",
        "latitude": 37.768227,
        "longitude": -122.42036,
        "total_trips": 18918,
        "member_trips": 15905,
        "casual_trips": 3013,
        "round_trips": 140
      },
      {
        "station_id": "SF-S24",
        "name": "Precita Park",
        "latitude": 37.74707,
        "longitude": -122.41066,
        "total_trips": 18832,
        "member_trips": 15359,
        "casual_trips": 3473,
        "round_trips": 162
      },
      {
        "station_id": "SF-B14",
        "name": "Lincoln Blvd at Graham St",
        "latitude": 37.80175,
        "longitude": -122.45636,
        "total_trips": 18817,
        "member_trips": 9896,
        "casual_trips": 8921,
        "round_trips": 1164
      },
      {
        "station_id": "SF-P21",
        "name": "20th St at Dolores St",
        "latitude": 37.75824,
        "longitude": -122.426094,
        "total_trips": 18781,
        "member_trips": 15468,
        "casual_trips": 3313,
        "round_trips": 231
      },
      {
        "station_id": "SF-ZZ11",
        "name": "Lincoln Blvd at Hoffman St",
        "latitude": 37.806065,
        "longitude": -122.47028,
        "total_trips": 18694,
        "member_trips": 4027,
        "casual_trips": 14667,
        "round_trips": 2595
      },
      {
        "station_id": "SF-K24-3",
        "name": "Howard St at Grace St",
        "latitude": 37.77448,
        "longitude": -122.41392,
        "total_trips": 18615,
        "member_trips": 16126,
        "casual_trips": 2489,
        "round_trips": 200
      },
      {
        "station_id": "SF-K28",
        "name": "Townsend St at 5th St",
        "latitude": 37.775234,
        "longitude": -122.39744,
        "total_trips": 18532,
        "member_trips": 15869,
        "casual_trips": 2663,
        "round_trips": 162
      },
      {
        "station_id": "SF-H28-2",
        "name": "Mabini St at Folsom St",
        "latitude": 37.782413,
        "longitude": -122.4002,
        "total_trips": 18490,
        "member_trips": 16096,
        "casual_trips": 2394,
        "round_trips": 101
      },
      {
        "station_id": "SJ-M10-2",
        "name": "San Fernando St at 4th St",
        "latitude": 37.335884,
        "longitude": -121.88566,
        "total_trips": 18452,
        "member_trips": 17036,
        "casual_trips": 1416,
        "round_trips": 699
      },
      {
        "station_id": "SF-G18",
        "name": "Post St at Divisadero St",
        "latitude": 37.78442,
        "longitude": -122.43936,
        "total_trips": 17896,
        "member_trips": 15141,
        "casual_trips": 2755,
        "round_trips": 103
      },
      {
        "station_id": "SF-N20-2",
        "name": "Sanchez St at 17th St",
        "latitude": 37.76324,
        "longitude": -122.43067,
        "total_trips": 17875,
        "member_trips": 15643,
        "casual_trips": 2232,
        "round_trips": 160
      },
      {
        "station_id": "SF-B20",
        "name": "Buchanan St at Lombard St",
        "latitude": 37.800495,
        "longitude": -122.43276,
        "total_trips": 17828,
        "member_trips": 13692,
        "casual_trips": 4136,
        "round_trips": 232
      },
      {
        "station_id": "SF-GGP-02",
        "name": "MLK Dr at 7th Ave",
        "latitude": 37.766613,
        "longitude": -122.46421,
        "total_trips": 17502,
        "member_trips": 9354,
        "casual_trips": 8148,
        "round_trips": 971
      },
      {
        "station_id": "SF-J12",
        "name": "7th Ave at Cabrillo St",
        "latitude": 37.77512,
        "longitude": -122.465,
        "total_trips": 17477,
        "member_trips": 12649,
        "casual_trips": 4828,
        "round_trips": 704
      },
      {
        "station_id": "SF-D27-2",
        "name": "Montgomery St at Pacific Ave",
        "latitude": 37.797176,
        "longitude": -122.403625,
        "total_trips": 17397,
        "member_trips": 14530,
        "casual_trips": 2867,
        "round_trips": 131
      },
      {
        "station_id": "SF-N26",
        "name": "Potrero Ave at Mariposa St",
        "latitude": 37.763283,
        "longitude": -122.40738,
        "total_trips": 17236,
        "member_trips": 15484,
        "casual_trips": 1752,
        "round_trips": 113
      },
      {
        "station_id": "SF-P26",
        "name": "22nd St at Potrero Ave",
        "latitude": 37.75681,
        "longitude": -122.405945,
        "total_trips": 17001,
        "member_trips": 15128,
        "casual_trips": 1873,
        "round_trips": 157
      },
      {
        "station_id": "SF-L28",
        "name": "Berry St at King St",
        "latitude": 37.771763,
        "longitude": -122.39844,
        "total_trips": 16703,
        "member_trips": 14743,
        "casual_trips": 1960,
        "round_trips": 166
      },
      {
        "station_id": "SF-I22",
        "name": "Golden Gate Ave at Franklin St",
        "latitude": 37.780807,
        "longitude": -122.421906,
        "total_trips": 16607,
        "member_trips": 13901,
        "casual_trips": 2706,
        "round_trips": 130
      },
      {
        "station_id": "SF-R19",
        "name": "Jersey St at Castro St",
        "latitude": 37.75056,
        "longitude": -122.43377,
        "total_trips": 16432,
        "member_trips": 13229,
        "casual_trips": 3203,
        "round_trips": 169
      },
      {
        "station_id": "SF-GGP-04",
        "name": "36th Ave at Spreckels Lake Dr",
        "latitude": 37.771587,
        "longitude": -122.49577,
        "total_trips": 16331,
        "member_trips": 6834,
        "casual_trips": 9497,
        "round_trips": 954
      },
      {
        "station_id": "SF-Q21-2",
        "name": "24th St at Chattanooga St",
        "latitude": 37.7518,
        "longitude": -122.4265,
        "total_trips": 16260,
        "member_trips": 13861,
        "casual_trips": 2399,
        "round_trips": 121
      },
      {
        "station_id": "SF-F17-1",
        "name": "Clay St at Lyon St",
        "latitude": 37.78928,
        "longitude": -122.44507,
        "total_trips": 16234,
        "member_trips": 12882,
        "casual_trips": 3352,
        "round_trips": 246
      },
      {
        "station_id": "SF-F27-2",
        "name": "Kearny St at Bush St",
        "latitude": 37.790962,
        "longitude": -122.4042,
        "total_trips": 16227,
        "member_trips": 13545,
        "casual_trips": 2682,
        "round_trips": 130
      },
      {
        "station_id": "SF-C28-2",
        "name": "Broadway at Battery St",
        "latitude": 37.798573,
        "longitude": -122.40087,
        "total_trips": 16081,
        "member_trips": 13662,
        "casual_trips": 2419,
        "round_trips": 102
      },
      {
        "station_id": "SF-H16",
        "name": "O'Farrell St at Masonic Ave",
        "latitude": 37.78113,
        "longitude": -122.44737,
        "total_trips": 15933,
        "member_trips": 13035,
        "casual_trips": 2898,
        "round_trips": 118
      },
      {
        "station_id": "OK-N1",
        "name": "West Oakland BART",
        "latitude": 37.80519,
        "longitude": -122.29462,
        "total_trips": 15825,
        "member_trips": 12165,
        "casual_trips": 3660,
        "round_trips": 101
      },
      {
        "station_id": "SJ-M11-2",
        "name": "San Fernando St at 7th St",
        "latitude": 37.337124,
        "longitude": -121.88322,
        "total_trips": 15821,
        "member_trips": 14949,
        "casual_trips": 872,
        "round_trips": 351
      },
      {
        "station_id": "SF-G30-2",
        "name": "The Embarcadero at Bryant St",
        "latitude": 37.78733,
        "longitude": -122.38811,
        "total_trips": 15790,
        "member_trips": 11763,
        "casual_trips": 4027,
        "round_trips": 158
      },
      {
        "station_id": "SF-Q26",
        "name": "23rd St at San Bruno Ave",
        "latitude": 37.754498,
        "longitude": -122.40414,
        "total_trips": 15640,
        "member_trips": 13260,
        "casual_trips": 2380,
        "round_trips": 86
      },
      {
        "station_id": "SF-J29-3",
        "name": "San Francisco Caltrain Station - King St",
        "latitude": 37.77631,
        "longitude": -122.39449,
        "total_trips": 15493,
        "member_trips": 11891,
        "casual_trips": 3602,
        "round_trips": 83
      },
      {
        "station_id": "SF-I26",
        "name": "5th St at Howard St",
        "latitude": 37.78125,
        "longitude": -122.40473,
        "total_trips": 15449,
        "member_trips": 12859,
        "casual_trips": 2590,
        "round_trips": 106
      },
      {
        "station_id": "SF-K27-3",
        "name": "Brannan St at Harriet St",
        "latitude": 37.774258,
        "longitude": -122.40185,
        "total_trips": 15401,
        "member_trips": 13251,
        "casual_trips": 2150,
        "round_trips": 112
      },
      {
        "station_id": "SF-G28-2",
        "name": "Howard St at Hawthorne St",
        "latitude": 37.78571,
        "longitude": -122.39975,
        "total_trips": 15391,
        "member_trips": 12625,
        "casual_trips": 2766,
        "round_trips": 85
      },
      {
        "station_id": "SJ-M7-1",
        "name": "San Jose Diridon Station",
        "latitude": 37.32973,
        "longitude": -121.90178,
        "total_trips": 15269,
        "member_trips": 11686,
        "casual_trips": 3583,
        "round_trips": 149
      },
      {
        "station_id": "OK-K5-2",
        "name": "19th Street BART",
        "latitude": 37.80937,
        "longitude": -122.26795,
        "total_trips": 15182,
        "member_trips": 11193,
        "casual_trips": 3989,
        "round_trips": 95
      },
      {
        "station_id": "SF-B28",
        "name": "Cruise Terminal at Pier 27",
        "latitude": 37.80465,
        "longitude": -122.402084,
        "total_trips": 15053,
        "member_trips": 9463,
        "casual_trips": 5590,
        "round_trips": 450
      },
      {
        "station_id": "SF-G23",
        "name": "Myrtle St at Polk St",
        "latitude": 37.78548,
        "longitude": -122.41934,
        "total_trips": 14787,
        "member_trips": 11644,
        "casual_trips": 3143,
        "round_trips": 251
      },
      {
        "station_id": "SF-K30-2",
        "name": "China Basin St at 3rd St",
        "latitude": 37.772,
        "longitude": -122.38997,
        "total_trips": 14731,
        "member_trips": 12579,
        "casual_trips": 2152,
        "round_trips": 131
      },
      {
        "station_id": "SF-Q21-1",
        "name": "22nd St at Dolores St",
        "latitude": 37.75498,
        "longitude": -122.42578,
        "total_trips": 14566,
        "member_trips": 12276,
        "casual_trips": 2290,
        "round_trips": 105
      },
      {
        "station_id": "SF-M28",
        "name": "Hubbell St at 16th St",
        "latitude": 37.766594,
        "longitude": -122.3982,
        "total_trips": 14460,
        "member_trips": 12119,
        "casual_trips": 2341,
        "round_trips": 125
      },
      {
        "station_id": "SF-E21",
        "name": "Lafayette Park",
        "latitude": 37.791965,
        "longitude": -122.42931,
        "total_trips": 14377,
        "member_trips": 11772,
        "casual_trips": 2605,
        "round_trips": 156
      },
      {
        "station_id": "SF-M24",
        "name": "Folsom St at 15th St",
        "latitude": 37.767036,
        "longitude": -122.41544,
        "total_trips": 14354,
        "member_trips": 12539,
        "casual_trips": 1815,
        "round_trips": 89
      },
      {
        "station_id": "SF-K31",
        "name": "China Basin Park",
        "latitude": 37.775974,
        "longitude": -122.38781,
        "total_trips": 14225,
        "member_trips": 11372,
        "casual_trips": 2853,
        "round_trips": 283
      },
      {
        "station_id": "BK-C9",
        "name": "Euclid Ave at Hearst Ave",
        "latitude": 37.87532,
        "longitude": -122.260155,
        "total_trips": 14138,
        "member_trips": 11784,
        "casual_trips": 2354,
        "round_trips": 163
      },
      {
        "station_id": "SF-L24-2",
        "name": "Harrison St at 14th St",
        "latitude": 37.768806,
        "longitude": -122.4135,
        "total_trips": 14087,
        "member_trips": 11668,
        "casual_trips": 2419,
        "round_trips": 69
      },
      {
        "station_id": "SF-C28-1",
        "name": "The Embarcadero at Vallejo St",
        "latitude": 37.799953,
        "longitude": -122.39852,
        "total_trips": 14069,
        "member_trips": 10125,
        "casual_trips": 3944,
        "round_trips": 202
      },
      {
        "station_id": "SF-R20",
        "name": "Jersey St at Church St",
        "latitude": 37.750923,
        "longitude": -122.42757,
        "total_trips": 13946,
        "member_trips": 11677,
        "casual_trips": 2269,
        "round_trips": 162
      },
      {
        "station_id": "SF-J10",
        "name": "Funston Ave at Fulton St",
        "latitude": 37.773586,
        "longitude": -122.47136,
        "total_trips": 13805,
        "member_trips": 6818,
        "casual_trips": 6987,
        "round_trips": 531
      },
      {
        "station_id": "SF-J13",
        "name": "McAllister St at Arguello Blvd",
        "latitude": 37.77533,
        "longitude": -122.45811,
        "total_trips": 13415,
        "member_trips": 9750,
        "casual_trips": 3665,
        "round_trips": 241
      },
      {
        "station_id": "SF-H26-2",
        "name": "Mint St at Mission St",
        "latitude": 37.78228,
        "longitude": -122.40731,
        "total_trips": 13401,
        "member_trips": 11189,
        "casual_trips": 2212,
        "round_trips": 147
      },
      {
        "station_id": "SF-F15",
        "name": "Spruce St at California St",
        "latitude": 37.78658,
        "longitude": -122.45342,
        "total_trips": 13346,
        "member_trips": 10031,
        "casual_trips": 3315,
        "round_trips": 185
      },
      {
        "station_id": "SF-M27",
        "name": "8th St at Hooper St",
        "latitude": 37.767258,
        "longitude": -122.40033,
        "total_trips": 13341,
        "member_trips": 11364,
        "casual_trips": 1977,
        "round_trips": 83
      },
      {
        "station_id": "SF-D27-3",
        "name": "Jackson St at Sansome St",
        "latitude": 37.796726,
        "longitude": -122.40166,
        "total_trips": 13307,
        "member_trips": 10989,
        "casual_trips": 2318,
        "round_trips": 108
      },
      {
        "station_id": "SF-H20",
        "name": "Webster St at O'Farrell St",
        "latitude": 37.78352,
        "longitude": -122.43116,
        "total_trips": 13241,
        "member_trips": 10691,
        "casual_trips": 2550,
        "round_trips": 96
      },
      {
        "station_id": "SF-A24-2",
        "name": "Francisco St at Columbus Ave",
        "latitude": 37.804455,
        "longitude": -122.415794,
        "total_trips": 13004,
        "member_trips": 8412,
        "casual_trips": 4592,
        "round_trips": 209
      },
      {
        "station_id": "SF-E28-4",
        "name": "Pine St at Market St",
        "latitude": 37.792458,
        "longitude": -122.39793,
        "total_trips": 12884,
        "member_trips": 10773,
        "casual_trips": 2111,
        "round_trips": 90
      },
      {
        "station_id": "SF-J15",
        "name": "Parker Ave at McAllister St",
        "latitude": 37.7761,
        "longitude": -122.453094,
        "total_trips": 12879,
        "member_trips": 10591,
        "casual_trips": 2288,
        "round_trips": 181
      },
      {
        "station_id": "SF-H30",
        "name": "The Embarcadero at Pier 38",
        "latitude": 37.78317,
        "longitude": -122.38802,
        "total_trips": 12846,
        "member_trips": 8302,
        "casual_trips": 4544,
        "round_trips": 158
      },
      {
        "station_id": "SF-M8",
        "name": "Irving St at 21st Ave",
        "latitude": 37.763527,
        "longitude": -122.47949,
        "total_trips": 12762,
        "member_trips": 8240,
        "casual_trips": 4522,
        "round_trips": 344
      },
      {
        "station_id": "OK-B4",
        "name": "Rockridge BART",
        "latitude": 37.84428,
        "longitude": -122.2519,
        "total_trips": 12750,
        "member_trips": 10210,
        "casual_trips": 2540,
        "round_trips": 107
      },
      {
        "station_id": "SJ-N11",
        "name": "San Salvador St at 9th St",
        "latitude": 37.333954,
        "longitude": -121.87735,
        "total_trips": 12700,
        "member_trips": 11466,
        "casual_trips": 1234,
        "round_trips": 680
      },
      {
        "station_id": "SF-N1",
        "name": "Great Highway at Judah St",
        "latitude": 37.760525,
        "longitude": -122.50951,
        "total_trips": 12568,
        "member_trips": 6029,
        "casual_trips": 6539,
        "round_trips": 656
      },
      {
        "station_id": "SF-I20",
        "name": "Turk St at Fillmore St",
        "latitude": 37.78045,
        "longitude": -122.431946,
        "total_trips": 12475,
        "member_trips": 10436,
        "casual_trips": 2039,
        "round_trips": 120
      },
      {
        "station_id": "SJ-L7-2",
        "name": "The Alameda at Bush St",
        "latitude": 37.331932,
        "longitude": -121.90489,
        "total_trips": 12235,
        "member_trips": 10792,
        "casual_trips": 1443,
        "round_trips": 245
      },
      {
        "station_id": "SF-F25",
        "name": "Sutter St at Taylor St",
        "latitude": 37.789005,
        "longitude": -122.41218,
        "total_trips": 12185,
        "member_trips": 9687,
        "casual_trips": 2498,
        "round_trips": 112
      },
      {
        "station_id": "SF-T20",
        "name": "29th St at Church St",
        "latitude": 37.743683,
        "longitude": -122.4268,
        "total_trips": 12178,
        "member_trips": 10051,
        "casual_trips": 2127,
        "round_trips": 191
      },
      {
        "station_id": "SF-G8-1",
        "name": "Anza St at 19th Ave",
        "latitude": 37.77856,
        "longitude": -122.478004,
        "total_trips": 12031,
        "member_trips": 7972,
        "casual_trips": 4059,
        "round_trips": 218
      },
      {
        "station_id": "SF-M12",
        "name": "7th Ave at Irving St",
        "latitude": 37.763435,
        "longitude": -122.464066,
        "total_trips": 11815,
        "member_trips": 8541,
        "casual_trips": 3274,
        "round_trips": 175
      },
      {
        "station_id": "SF-J3",
        "name": "38th Ave at Balboa St",
        "latitude": 37.77552,
        "longitude": -122.4985,
        "total_trips": 11779,
        "member_trips": 7769,
        "casual_trips": 4010,
        "round_trips": 229
      },
      {
        "station_id": "SF-M3",
        "name": "41st Ave at Irving St",
        "latitude": 37.76265,
        "longitude": -122.50078,
        "total_trips": 11703,
        "member_trips": 6294,
        "casual_trips": 5409,
        "round_trips": 299
      },
      {
        "station_id": "OK-I6",
        "name": "Bay Pl at Vernon St",
        "latitude": 37.812252,
        "longitude": -122.26072,
        "total_trips": 11647,
        "member_trips": 8169,
        "casual_trips": 3478,
        "round_trips": 159
      },
      {
        "station_id": "SF-G5",
        "name": "Clement St at 32nd Ave",
        "latitude": 37.781723,
        "longitude": -122.49284,
        "total_trips": 11503,
        "member_trips": 6863,
        "casual_trips": 4640,
        "round_trips": 256
      },
      {
        "station_id": "SF-E18",
        "name": "Divisadero St at Clay St",
        "latitude": 37.78959,
        "longitude": -122.44068,
        "total_trips": 11439,
        "member_trips": 9377,
        "casual_trips": 2062,
        "round_trips": 123
      },
      {
        "station_id": "SF-B24-1",
        "name": "Taylor St at Columbus Ave",
        "latitude": 37.803307,
        "longitude": -122.414894,
        "total_trips": 11401,
        "member_trips": 8755,
        "casual_trips": 2646,
        "round_trips": 149
      },
      {
        "station_id": "SF-L27-2",
        "name": "7th St at King St",
        "latitude": 37.77123,
        "longitude": -122.40089,
        "total_trips": 11357,
        "member_trips": 9793,
        "casual_trips": 1564,
        "round_trips": 70
      },
      {
        "station_id": "SF-F18",
        "name": "Scott St at California St",
        "latitude": 37.788048,
        "longitude": -122.43881,
        "total_trips": 11248,
        "member_trips": 9161,
        "casual_trips": 2087,
        "round_trips": 102
      },
      {
        "station_id": "OK-M7",
        "name": "Lake Merritt BART",
        "latitude": 37.79732,
        "longitude": -122.26532,
        "total_trips": 11186,
        "member_trips": 7929,
        "casual_trips": 3257,
        "round_trips": 92
      },
      {
        "station_id": "SF-G11",
        "name": "9th Ave at Geary Blvd",
        "latitude": 37.78184,
        "longitude": -122.467636,
        "total_trips": 11016,
        "member_trips": 8223,
        "casual_trips": 2793,
        "round_trips": 154
      },
      {
        "station_id": "SJ-L9",
        "name": "San Pedro Square",
        "latitude": 37.336803,
        "longitude": -121.89409,
        "total_trips": 10960,
        "member_trips": 8936,
        "casual_trips": 2024,
        "round_trips": 484
      },
      {
        "station_id": "SF-I26-2",
        "name": "Howard St at 6th St",
        "latitude": 37.780266,
        "longitude": -122.40665,
        "total_trips": 10957,
        "member_trips": 9295,
        "casual_trips": 1662,
        "round_trips": 91
      },
      {
        "station_id": "SF-L24",
        "name": "Folsom St at 13th St",
        "latitude": 37.770283,
        "longitude": -122.41546,
        "total_trips": 10835,
        "member_trips": 8439,
        "casual_trips": 2396,
        "round_trips": 65
      },
      {
        "station_id": "SF-M30-3",
        "name": "Illinois St at 16th St",
        "latitude": 37.766678,
        "longitude": -122.38818,
        "total_trips": 10815,
        "member_trips": 8662,
        "casual_trips": 2153,
        "round_trips": 89
      },
      {
        "station_id": "OK-I9",
        "name": "El Embarcadero at Grand Ave",
        "latitude": 37.808716,
        "longitude": -122.24925,
        "total_trips": 10694,
        "member_trips": 7164,
        "casual_trips": 3530,
        "round_trips": 368
      },
      {
        "station_id": "SF-J27",
        "name": "Bryant St at 6th St",
        "latitude": 37.775833,
        "longitude": -122.402695,
        "total_trips": 10591,
        "member_trips": 8645,
        "casual_trips": 1946,
        "round_trips": 90
      },
      {
        "station_id": "SF-H0",
        "name": "Great Highway at Balboa St",
        "latitude": 37.77521,
        "longitude": -122.51121,
        "total_trips": 10571,
        "member_trips": 5148,
        "casual_trips": 5423,
        "round_trips": 392
      },
      {
        "station_id": "SF-R26",
        "name": "Potrero del Sol Park",
        "latitude": 37.75168,
        "longitude": -122.40525,
        "total_trips": 10512,
        "member_trips": 8608,
        "casual_trips": 1904,
        "round_trips": 145
      },
      {
        "station_id": "BK-H6",
        "name": "Ashby BART",
        "latitude": 37.852478,
        "longitude": -122.27021,
        "total_trips": 10455,
        "member_trips": 8305,
        "casual_trips": 2150,
        "round_trips": 79
      },
      {
        "station_id": "SF-G7",
        "name": "23rd Ave at Clement St",
        "latitude": 37.78193,
        "longitude": -122.48279,
        "total_trips": 10389,
        "member_trips": 6763,
        "casual_trips": 3626,
        "round_trips": 224
      },
      {
        "station_id": "SF-G17",
        "name": "Post St at Baker St",
        "latitude": 37.783974,
        "longitude": -122.44288,
        "total_trips": 10340,
        "member_trips": 8258,
        "casual_trips": 2082,
        "round_trips": 103
      },
      {
        "station_id": "SF-N22-1A",
        "name": "16th St Mission BART South",
        "latitude": 37.764683,
        "longitude": -122.41993,
        "total_trips": 10238,
        "member_trips": 8924,
        "casual_trips": 1314,
        "round_trips": 76
      },
      {
        "station_id": "SF-F16",
        "name": "Laurel St at California St",
        "latitude": 37.78661,
        "longitude": -122.45005,
        "total_trips": 10023,
        "member_trips": 8039,
        "casual_trips": 1984,
        "round_trips": 92
      },
      {
        "station_id": "SF-H12",
        "name": "5th Ave at Anza St",
        "latitude": 37.779488,
        "longitude": -122.46314,
        "total_trips": 10023,
        "member_trips": 7402,
        "casual_trips": 2621,
        "round_trips": 154
      },
      {
        "station_id": "SF-F24",
        "name": "Bush St at Leavenworth St",
        "latitude": 37.789425,
        "longitude": -122.41517,
        "total_trips": 9992,
        "member_trips": 7659,
        "casual_trips": 2333,
        "round_trips": 114
      },
      {
        "station_id": "OK-I8",
        "name": "Grand Ave at Perkins St",
        "latitude": 37.808895,
        "longitude": -122.25646,
        "total_trips": 9986,
        "member_trips": 6880,
        "casual_trips": 3106,
        "round_trips": 264
      },
      {
        "station_id": "SJ-N10-1",
        "name": "4th St at San Carlos St",
        "latitude": 37.332798,
        "longitude": -121.88385,
        "total_trips": 9966,
        "member_trips": 8953,
        "casual_trips": 1013,
        "round_trips": 369
      },
      {
        "station_id": "SF-J1",
        "name": "48th Ave at Cabrillo St",
        "latitude": 37.772953,
        "longitude": -122.50907,
        "total_trips": 9841,
        "member_trips": 5413,
        "casual_trips": 4428,
        "round_trips": 270
      },
      {
        "station_id": "BK-F8",
        "name": "Parker St at Fulton St",
        "latitude": 37.862465,
        "longitude": -122.26479,
        "total_trips": 9829,
        "member_trips": 7660,
        "casual_trips": 2169,
        "round_trips": 183
      },
      {
        "station_id": "OK-J6-1",
        "name": "Grand Ave at Webster St",
        "latitude": 37.81138,
        "longitude": -122.26519,
        "total_trips": 9768,
        "member_trips": 6755,
        "casual_trips": 3013,
        "round_trips": 107
      },
      {
        "station_id": "SF-V23",
        "name": "Cortland Ave at Wool St",
        "latitude": 37.739082,
        "longitude": -122.417305,
        "total_trips": 9603,
        "member_trips": 7550,
        "casual_trips": 2053,
        "round_trips": 127
      },
      {
        "station_id": "OK-L5",
        "name": "Frank H Ogawa Plaza",
        "latitude": 37.80456,
        "longitude": -122.271736,
        "total_trips": 9557,
        "member_trips": 7000,
        "casual_trips": 2557,
        "round_trips": 255
      },
      {
        "station_id": "SJ-M10-4",
        "name": "Fountain Alley at S 2nd St",
        "latitude": 37.33619,
        "longitude": -121.889275,
        "total_trips": 9287,
        "member_trips": 7915,
        "casual_trips": 1372,
        "round_trips": 470
      },
      {
        "station_id": "SF-M26",
        "name": "15th St at Potrero Ave",
        "latitude": 37.76708,
        "longitude": -122.40736,
        "total_trips": 9234,
        "member_trips": 8203,
        "casual_trips": 1031,
        "round_trips": 70
      },
      {
        "station_id": "OK-F6",
        "name": "40th St at Piedmont Ave",
        "latitude": 37.825787,
        "longitude": -122.25347,
        "total_trips": 9180,
        "member_trips": 6646,
        "casual_trips": 2534,
        "round_trips": 83
      },
      {
        "station_id": "SF-G6-1",
        "name": "26th Ave at Clement St",
        "latitude": 37.781757,
        "longitude": -122.48603,
        "total_trips": 9174,
        "member_trips": 6104,
        "casual_trips": 3070,
        "round_trips": 177
      },
      {
        "station_id": "SF-P24-2",
        "name": "Folsom St at 21st St",
        "latitude": 37.75745,
        "longitude": -122.41464,
        "total_trips": 9061,
        "member_trips": 7794,
        "casual_trips": 1267,
        "round_trips": 57
      },
      {
        "station_id": "SF-S1",
        "name": "Great Highway at Taraval St",
        "latitude": 37.741848,
        "longitude": -122.50706,
        "total_trips": 9033,
        "member_trips": 3918,
        "casual_trips": 5115,
        "round_trips": 1097
      },
      {
        "station_id": "SF-J5",
        "name": "34th Ave at Balboa St",
        "latitude": 37.77568,
        "longitude": -122.494064,
        "total_trips": 8773,
        "member_trips": 5918,
        "casual_trips": 2855,
        "round_trips": 182
      },
      {
        "station_id": "SF-E29-5",
        "name": "Main St at Market St",
        "latitude": 37.792847,
        "longitude": -122.39633,
        "total_trips": 8741,
        "member_trips": 7207,
        "casual_trips": 1534,
        "round_trips": 42
      },
      {
        "station_id": "SF-M9-2",
        "name": "Irving St at 17th Ave",
        "latitude": 37.76372,
        "longitude": -122.47537,
        "total_trips": 8740,
        "member_trips": 5713,
        "casual_trips": 3027,
        "round_trips": 178
      },
      {
        "station_id": "SJ-M10-1",
        "name": "San Jose City Hall",
        "latitude": 37.33739,
        "longitude": -121.88699,
        "total_trips": 8626,
        "member_trips": 7526,
        "casual_trips": 1100,
        "round_trips": 411
      },
      {
        "station_id": "SF-K28-3",
        "name": "Townsend St at 6th St",
        "latitude": 37.77324,
        "longitude": -122.4,
        "total_trips": 8577,
        "member_trips": 7723,
        "casual_trips": 854,
        "round_trips": 57
      },
      {
        "station_id": "SF-H25",
        "name": "Father Alfred E Boeddeker Park",
        "latitude": 37.784077,
        "longitude": -122.41193,
        "total_trips": 8488,
        "member_trips": 6608,
        "casual_trips": 1880,
        "round_trips": 253
      },
      {
        "station_id": "BK-C6",
        "name": "MLK Jr Way at University Ave",
        "latitude": 37.87172,
        "longitude": -122.27307,
        "total_trips": 8231,
        "member_trips": 6828,
        "casual_trips": 1403,
        "round_trips": 127
      },
      {
        "station_id": "SF-M10",
        "name": "Funston Ave at Irving St",
        "latitude": 37.763935,
        "longitude": -122.47065,
        "total_trips": 8201,
        "member_trips": 5991,
        "casual_trips": 2210,
        "round_trips": 125
      },
      {
        "station_id": "SF-G10-1",
        "name": "Funston Ave at Clement St",
        "latitude": 37.78244,
        "longitude": -122.471985,
        "total_trips": 8197,
        "member_trips": 6037,
        "casual_trips": 2160,
        "round_trips": 127
      },
      {
        "station_id": "SJ-M6",
        "name": "Cahill Park",
        "latitude": 37.329117,
        "longitude": -121.90458,
        "total_trips": 8187,
        "member_trips": 7213,
        "casual_trips": 974,
        "round_trips": 269
      },
      {
        "station_id": "SJ-K5",
        "name": "Julian St at The Alameda",
        "latitude": 37.332233,
        "longitude": -121.91251,
        "total_trips": 8166,
        "member_trips": 7095,
        "casual_trips": 1071,
        "round_trips": 184
      },
      {
        "station_id": "BK-G7",
        "name": "Oregon St at Adeline St",
        "latitude": 37.857567,
        "longitude": -122.267555,
        "total_trips": 8079,
        "member_trips": 6673,
        "casual_trips": 1406,
        "round_trips": 60
      },
      {
        "station_id": "SF-D25",
        "name": "Taylor St at Pacific Ave",
        "latitude": 37.796207,
        "longitude": -122.41337,
        "total_trips": 8048,
        "member_trips": 6437,
        "casual_trips": 1611,
        "round_trips": 81
      },
      {
        "station_id": "OK-H5",
        "name": "Broadway at 30th St",
        "latitude": 37.81938,
        "longitude": -122.261925,
        "total_trips": 8005,
        "member_trips": 5678,
        "casual_trips": 2327,
        "round_trips": 58
      },
      {
        "station_id": "SF-B15",
        "name": "Torney Ave at Lincoln Blvd",
        "latitude": 37.799675,
        "longitude": -122.4526,
        "total_trips": 7897,
        "member_trips": 5056,
        "casual_trips": 2841,
        "round_trips": 301
      },
      {
        "station_id": "OK-D4",
        "name": "Telegraph Ave at 49th St",
        "latitude": 37.83575,
        "longitude": -122.26266,
        "total_trips": 7886,
        "member_trips": 5591,
        "casual_trips": 2295,
        "round_trips": 102
      },
      {
        "station_id": "SF-M7",
        "name": "25th Ave at Irving St",
        "latitude": 37.763443,
        "longitude": -122.48355,
        "total_trips": 7781,
        "member_trips": 4898,
        "casual_trips": 2883,
        "round_trips": 207
      },
      {
        "station_id": "BK-A7",
        "name": "Vine St at Shattuck Ave",
        "latitude": 37.880222,
        "longitude": -122.26959,
        "total_trips": 7702,
        "member_trips": 5874,
        "casual_trips": 1828,
        "round_trips": 82
      },
      {
        "station_id": "SF-C25-2",
        "name": "Powell St at Green St",
        "latitude": 37.799145,
        "longitude": -122.41069,
        "total_trips": 7677,
        "member_trips": 5727,
        "casual_trips": 1950,
        "round_trips": 120
      },
      {
        "station_id": "SF-F9",
        "name": "18th Ave at California St",
        "latitude": 37.78511,
        "longitude": -122.47767,
        "total_trips": 7677,
        "member_trips": 5300,
        "casual_trips": 2377,
        "round_trips": 228
      },
      {
        "station_id": "BK-D7-2",
        "name": "Berkeley Civic Center",
        "latitude": 37.86906,
        "longitude": -122.27055,
        "total_trips": 7677,
        "member_trips": 5757,
        "casual_trips": 1920,
        "round_trips": 83
      },
      {
        "station_id": "BK-F10",
        "name": "Derby St at College Ave",
        "latitude": 37.86176,
        "longitude": -122.25368,
        "total_trips": 7659,
        "member_trips": 5802,
        "casual_trips": 1857,
        "round_trips": 126
      },
      {
        "station_id": "OK-K9",
        "name": "2nd Ave at E 18th St",
        "latitude": 37.800213,
        "longitude": -122.25381,
        "total_trips": 7618,
        "member_trips": 4995,
        "casual_trips": 2623,
        "round_trips": 149
      },
      {
        "station_id": "BK-E8",
        "name": "Fulton St at Bancroft Way",
        "latitude": 37.868134,
        "longitude": -122.26594,
        "total_trips": 7536,
        "member_trips": 6135,
        "casual_trips": 1401,
        "round_trips": 101
      },
      {
        "station_id": "SF-S21",
        "name": "Cesar Chavez St at Dolores St",
        "latitude": 37.74786,
        "longitude": -122.42499,
        "total_trips": 7509,
        "member_trips": 6265,
        "casual_trips": 1244,
        "round_trips": 64
      },
      {
        "station_id": "SF-H19",
        "name": "Ellis St at Pierce St",
        "latitude": 37.78205,
        "longitude": -122.43573,
        "total_trips": 7483,
        "member_trips": 6278,
        "casual_trips": 1205,
        "round_trips": 77
      },
      {
        "station_id": "SJ-K6",
        "name": "N Morrison Ave at W Julian St",
        "latitude": 37.333675,
        "longitude": -121.908615,
        "total_trips": 7467,
        "member_trips": 7114,
        "casual_trips": 353,
        "round_trips": 199
      },
      {
        "station_id": "SF-Outside Lands-Temp",
        "name": "Outside Lands",
        "latitude": 37.77064,
        "longitude": -122.47969,
        "total_trips": 7308,
        "member_trips": 2294,
        "casual_trips": 5014,
        "round_trips": 179
      },
      {
        "station_id": "SF-H15",
        "name": "Anza St at Collins St",
        "latitude": 37.78068,
        "longitude": -122.45001,
        "total_trips": 7216,
        "member_trips": 5318,
        "casual_trips": 1898,
        "round_trips": 99
      },
      {
        "station_id": "BK-E9-2",
        "name": "Haste St at Telegraph Ave",
        "latitude": 37.866043,
        "longitude": -122.258804,
        "total_trips": 7206,
        "member_trips": 5486,
        "casual_trips": 1720,
        "round_trips": 170
      },
      {
        "station_id": "SF-H13",
        "name": "Arguello Blvd at Edward St",
        "latitude": 37.77849,
        "longitude": -122.45865,
        "total_trips": 7169,
        "member_trips": 5470,
        "casual_trips": 1699,
        "round_trips": 113
      },
      {
        "station_id": "BK-E7",
        "name": "Channing Way at Shattuck Ave",
        "latitude": 37.865845,
        "longitude": -122.26744,
        "total_trips": 6837,
        "member_trips": 5102,
        "casual_trips": 1735,
        "round_trips": 110
      },
      {
        "station_id": "OK-H9-1",
        "name": "Grand Ave at Santa Clara Ave",
        "latitude": 37.812744,
        "longitude": -122.247215,
        "total_trips": 6826,
        "member_trips": 4805,
        "casual_trips": 2021,
        "round_trips": 79
      },
      {
        "station_id": "SF-H18",
        "name": "O'Farrell St at Divisadero St",
        "latitude": 37.782406,
        "longitude": -122.439445,
        "total_trips": 6818,
        "member_trips": 5356,
        "casual_trips": 1462,
        "round_trips": 74
      },
      {
        "station_id": "SF-W19",
        "name": "Glen Park BART",
        "latitude": 37.73281,
        "longitude": -122.43414,
        "total_trips": 6772,
        "member_trips": 5369,
        "casual_trips": 1403,
        "round_trips": 75
      },
      {
        "station_id": "SF-F28-5",
        "name": "Sutter St at Montgomery St",
        "latitude": 37.790043,
        "longitude": -122.40199,
        "total_trips": 6721,
        "member_trips": 5747,
        "casual_trips": 974,
        "round_trips": 41
      },
      {
        "station_id": "OK-K5-1",
        "name": "Telegraph Ave at 19th St",
        "latitude": 37.8087,
        "longitude": -122.26993,
        "total_trips": 6718,
        "member_trips": 4771,
        "casual_trips": 1947,
        "round_trips": 86
      },
      {
        "station_id": "BK-H9",
        "name": "Telegraph Ave at Ashby Ave",
        "latitude": 37.855957,
        "longitude": -122.259796,
        "total_trips": 6717,
        "member_trips": 5462,
        "casual_trips": 1255,
        "round_trips": 179
      },
      {
        "station_id": "SF-G10-2",
        "name": "14th Ave at Geary Blvd",
        "latitude": 37.780365,
        "longitude": -122.47281,
        "total_trips": 6691,
        "member_trips": 4855,
        "casual_trips": 1836,
        "round_trips": 87
      },
      {
        "station_id": "BK-F9",
        "name": "Telegraph Ave at Carleton St",
        "latitude": 37.86232,
        "longitude": -122.258804,
        "total_trips": 6609,
        "member_trips": 4471,
        "casual_trips": 2138,
        "round_trips": 84
      },
      {
        "station_id": "SJ-O10",
        "name": "Pierce Ave at Market St",
        "latitude": 37.32758,
        "longitude": -121.88456,
        "total_trips": 6606,
        "member_trips": 5572,
        "casual_trips": 1034,
        "round_trips": 313
      },
      {
        "station_id": "SF-G9",
        "name": "17th Ave at Geary Blvd",
        "latitude": 37.78072,
        "longitude": -122.476105,
        "total_trips": 6512,
        "member_trips": 4574,
        "casual_trips": 1938,
        "round_trips": 73
      },
      {
        "station_id": "BK-C8",
        "name": "University Ave at Oxford St",
        "latitude": 37.872356,
        "longitude": -122.26645,
        "total_trips": 6370,
        "member_trips": 5376,
        "casual_trips": 994,
        "round_trips": 184
      },
      {
        "station_id": "OK-N6",
        "name": "Webster St at 2nd St",
        "latitude": 37.795197,
        "longitude": -122.27397,
        "total_trips": 6327,
        "member_trips": 4419,
        "casual_trips": 1908,
        "round_trips": 170
      },
      {
        "station_id": "SJ-M10-3",
        "name": "Paseo De San Antonio at 2nd St",
        "latitude": 37.333797,
        "longitude": -121.88694,
        "total_trips": 6230,
        "member_trips": 5000,
        "casual_trips": 1230,
        "round_trips": 264
      },
      {
        "station_id": "SF-S22-2",
        "name": "Guerrero Park",
        "latitude": 37.74574,
        "longitude": -122.42214,
        "total_trips": 6197,
        "member_trips": 4945,
        "casual_trips": 1252,
        "round_trips": 24
      },
      {
        "station_id": "SJ-M11-1",
        "name": "Santa Clara St at 7th St",
        "latitude": 37.339146,
        "longitude": -121.8841,
        "total_trips": 6187,
        "member_trips": 5700,
        "casual_trips": 487,
        "round_trips": 118
      },
      {
        "station_id": "SF-I16",
        "name": "Masonic Ave at Turk St",
        "latitude": 37.779045,
        "longitude": -122.44729,
        "total_trips": 6050,
        "member_trips": 4515,
        "casual_trips": 1535,
        "round_trips": 76
      },
      {
        "station_id": "OK-L7-2",
        "name": "Lakeside Dr at 14th St",
        "latitude": 37.80132,
        "longitude": -122.26264,
        "total_trips": 5872,
        "member_trips": 4015,
        "casual_trips": 1857,
        "round_trips": 327
      },
      {
        "station_id": "BK-D1",
        "name": "Addison St at Fourth St",
        "latitude": 37.866257,
        "longitude": -122.29913,
        "total_trips": 5813,
        "member_trips": 3640,
        "casual_trips": 2173,
        "round_trips": 350
      },
      {
        "station_id": "SF-T21",
        "name": "30th St at San Jose Ave",
        "latitude": 37.742313,
        "longitude": -122.42318,
        "total_trips": 5761,
        "member_trips": 4722,
        "casual_trips": 1039,
        "round_trips": 46
      },
      {
        "station_id": "SF-J14",
        "name": "Turk Blvd at Stanyan St",
        "latitude": 37.77761,
        "longitude": -122.45462,
        "total_trips": 5751,
        "member_trips": 4844,
        "casual_trips": 907,
        "round_trips": 81
      },
      {
        "station_id": "SF-C14",
        "name": "MacArthur Ave at Fernandez St",
        "latitude": 37.796524,
        "longitude": -122.455734,
        "total_trips": 5744,
        "member_trips": 4520,
        "casual_trips": 1224,
        "round_trips": 119
      },
      {
        "station_id": "OK-J5",
        "name": "23rd St at Telegraph Ave",
        "latitude": 37.81258,
        "longitude": -122.26857,
        "total_trips": 5722,
        "member_trips": 4107,
        "casual_trips": 1615,
        "round_trips": 80
      },
      {
        "station_id": "BK-F7",
        "name": "Milvia St at Derby St",
        "latitude": 37.860344,
        "longitude": -122.26941,
        "total_trips": 5716,
        "member_trips": 4516,
        "casual_trips": 1200,
        "round_trips": 73
      },
      {
        "station_id": "SF-H17",
        "name": "Saint Joseph's Ave at Geary Blvd",
        "latitude": 37.782574,
        "longitude": -122.4422,
        "total_trips": 5686,
        "member_trips": 4888,
        "casual_trips": 798,
        "round_trips": 39
      },
      {
        "station_id": "BK-C7",
        "name": "Shattuck Ave at Hearst Ave",
        "latitude": 37.873676,
        "longitude": -122.268486,
        "total_trips": 5675,
        "member_trips": 4586,
        "casual_trips": 1089,
        "round_trips": 110
      },
      {
        "station_id": "BK-C5",
        "name": "North Berkeley BART",
        "latitude": 37.873856,
        "longitude": -122.28299,
        "total_trips": 5625,
        "member_trips": 3603,
        "casual_trips": 2022,
        "round_trips": 140
      },
      {
        "station_id": "OK-K7",
        "name": "Madison St at 17th St",
        "latitude": 37.804035,
        "longitude": -122.26241,
        "total_trips": 5588,
        "member_trips": 4106,
        "casual_trips": 1482,
        "round_trips": 183
      },
      {
        "station_id": "SF-D8",
        "name": "Lincoln Blvd at Bowley St",
        "latitude": 37.79207,
        "longitude": -122.48121,
        "total_trips": 5527,
        "member_trips": 2309,
        "casual_trips": 3218,
        "round_trips": 230
      },
      {
        "station_id": "SJ-M11-3",
        "name": "9th St at San Fernando St",
        "latitude": 37.338394,
        "longitude": -121.8808,
        "total_trips": 5442,
        "member_trips": 4910,
        "casual_trips": 532,
        "round_trips": 148
      },
      {
        "station_id": "SJ-K9",
        "name": "Ryland Park",
        "latitude": 37.342724,
        "longitude": -121.895615,
        "total_trips": 5439,
        "member_trips": 4826,
        "casual_trips": 613,
        "round_trips": 152
      },
      {
        "station_id": "SJ-P10",
        "name": "5th St at Virginia St",
        "latitude": 37.326,
        "longitude": -121.87712,
        "total_trips": 5411,
        "member_trips": 5059,
        "casual_trips": 352,
        "round_trips": 194
      },
      {
        "station_id": "SF-O12",
        "name": "7th Ave at Lawton St",
        "latitude": 37.758953,
        "longitude": -122.46377,
        "total_trips": 5379,
        "member_trips": 4264,
        "casual_trips": 1115,
        "round_trips": 80
      },
      {
        "station_id": "HS-1",
        "name": "Hardly Strictly Bluegrass",
        "latitude": 37.770863,
        "longitude": -122.47875,
        "total_trips": 5335,
        "member_trips": 2282,
        "casual_trips": 3053,
        "round_trips": 82
      },
      {
        "station_id": "SF-H14",
        "name": "Stanyan St at Geary Blvd",
        "latitude": 37.78095,
        "longitude": -122.45631,
        "total_trips": 5248,
        "member_trips": 4179,
        "casual_trips": 1069,
        "round_trips": 60
      },
      {
        "station_id": "SF-P1",
        "name": "Great Highway at Noriega St",
        "latitude": 37.753006,
        "longitude": -122.50854,
        "total_trips": 5172,
        "member_trips": 2282,
        "casual_trips": 2890,
        "round_trips": 327
      },
      {
        "station_id": "BK-H3",
        "name": "Ninth St at Heinz Ave",
        "latitude": 37.852997,
        "longitude": -122.289444,
        "total_trips": 5151,
        "member_trips": 3816,
        "casual_trips": 1335,
        "round_trips": 92
      },
      {
        "station_id": "EM-C1",
        "name": "65th St at Hollis St",
        "latitude": 37.846783,
        "longitude": -122.291374,
        "total_trips": 5034,
        "member_trips": 3746,
        "casual_trips": 1288,
        "round_trips": 159
      },
      {
        "station_id": "OK-M6",
        "name": "Franklin St at 9th St",
        "latitude": 37.800514,
        "longitude": -122.27208,
        "total_trips": 5025,
        "member_trips": 3510,
        "casual_trips": 1515,
        "round_trips": 54
      },
      {
        "station_id": "OK-E4",
        "name": "Shattuck Ave at Telegraph Ave",
        "latitude": 37.833538,
        "longitude": -122.263695,
        "total_trips": 4999,
        "member_trips": 3655,
        "casual_trips": 1344,
        "round_trips": 52
      },
      {
        "station_id": "SF-M4",
        "name": "36th Ave at Irving St",
        "latitude": 37.762897,
        "longitude": -122.49539,
        "total_trips": 4834,
        "member_trips": 2548,
        "casual_trips": 2286,
        "round_trips": 140
      },
      {
        "station_id": "OK-F5",
        "name": "Broadway at 40th St",
        "latitude": 37.82776,
        "longitude": -122.256714,
        "total_trips": 4744,
        "member_trips": 3442,
        "casual_trips": 1302,
        "round_trips": 41
      },
      {
        "station_id": "BK-E10",
        "name": "Haste St at College Ave",
        "latitude": 37.866417,
        "longitude": -122.2538,
        "total_trips": 4743,
        "member_trips": 3692,
        "casual_trips": 1051,
        "round_trips": 75
      },
      {
        "station_id": "SF-S30",
        "name": "Illinois St at Cesar Chavez St",
        "latitude": 37.750168,
        "longitude": -122.38654,
        "total_trips": 4718,
        "member_trips": 3236,
        "casual_trips": 1482,
        "round_trips": 75
      },
      {
        "station_id": "OK-K10",
        "name": "21st St at 5th Ave",
        "latitude": 37.80046,
        "longitude": -122.24746,
        "total_trips": 4713,
        "member_trips": 3220,
        "casual_trips": 1493,
        "round_trips": 71
      },
      {
        "station_id": "OK-I5",
        "name": "Telegraph Ave at 27th St",
        "latitude": 37.816074,
        "longitude": -122.26788,
        "total_trips": 4676,
        "member_trips": 3459,
        "casual_trips": 1217,
        "round_trips": 62
      },
      {
        "station_id": "EM-C1-2",
        "name": "Bay Street Plaza",
        "latitude": 37.834576,
        "longitude": -122.29206,
        "total_trips": 4488,
        "member_trips": 2751,
        "casual_trips": 1737,
        "round_trips": 239
      },
      {
        "station_id": "BK-B7",
        "name": "Virginia St at Shattuck Ave",
        "latitude": 37.87657,
        "longitude": -122.26953,
        "total_trips": 4465,
        "member_trips": 3331,
        "casual_trips": 1134,
        "round_trips": 71
      },
      {
        "station_id": "SJ-N5",
        "name": "Sunol St at San Carlos St",
        "latitude": 37.323452,
        "longitude": -121.905975,
        "total_trips": 4464,
        "member_trips": 3641,
        "casual_trips": 823,
        "round_trips": 184
      },
      {
        "station_id": "SJ-M8-1",
        "name": "Almaden Blvd at San Fernando St",
        "latitude": 37.331413,
        "longitude": -121.8932,
        "total_trips": 4454,
        "member_trips": 3481,
        "casual_trips": 973,
        "round_trips": 99
      },
      {
        "station_id": "OK-K1",
        "name": "Raimondi Park",
        "latitude": 37.81493,
        "longitude": -122.29295,
        "total_trips": 4386,
        "member_trips": 2942,
        "casual_trips": 1444,
        "round_trips": 113
      },
      {
        "station_id": "SF-P2",
        "name": "45th Ave at Noriega St",
        "latitude": 37.752808,
        "longitude": -122.50426,
        "total_trips": 4378,
        "member_trips": 2499,
        "casual_trips": 1879,
        "round_trips": 114
      },